City_ID,City,Lat,Lng,Max Temp,Humidity,Cloudiness,Wind Speed,Country,Date
0,bucerias,20.75,-105.3333,28.99,84,75,2.57,MX,1728610203
1,karratha,-20.7377,116.8463,31.7,37,0,7.15,AU,1728610204
2,napili-honokowai,20.9708,-156.6705,30.64,83,100,5.78,US,1728610205
3,papatowai,-46.5619,169.4708,13.37,60,72,3.84,NZ,1728610206
4,mariinsk,56.2139,87.7472,-2.62,62,100,3.56,RU,1728610207
5,lebu,-37.6167,-73.65,11.94,98,100,4.07,CL,1728610208
6,vorkuta,67.5,64.0,-10.04,98,65,0.51,RU,1728610209
7,banff,51.1762,-115.5698,4.21,70,41,1.03,CA,1728610211
8,adamstown,-25.066,-130.1015,21.29,87,100,7.03,PN,1728610212
9,nampula,-15.1165,39.2666,19.97,83,20,2.06,MZ,1728610213
10,invercargill,-46.4,168.35,14.45,71,70,5.36,NZ,1728610214
11,petropavlovsk-kamchatsky,53.0452,158.6483,7.33,36,0,3.0,RU,1728609696
12,blackmans bay,-43.0167,147.3167,15.41,50,19,2.68,AU,1728610216
13,mount pleasant,32.7941,-79.8626,19.44,57,0,5.14,US,1728609987
14,udachny,66.4167,112.4,-8.16,91,100,4.35,RU,1728610218
15,susuman,62.7833,148.1667,-8.89,78,81,1.18,RU,1728610219
16,christchurch,-43.5333,172.6333,19.07,43,94,3.6,NZ,1728609709
17,laojunmiao,39.8333,97.7333,10.93,34,100,1.14,CN,1728610222
18,iqaluit,63.7506,-68.5145,-0.15,86,75,1.03,CA,1728610213
19,howrah,22.5892,88.3103,29.0,84,20,2.06,IN,1728610224
20,codrington,-38.2667,141.9667,14.01,65,100,6.9,AU,1728610225
21,betio village,1.358,172.9211,31.02,73,35,5.31,KI,1728610226
22,lata,40.1629,-8.3327,14.46,75,100,1.99,PT,1728609861
23,la'ie,21.6477,-157.9253,30.66,79,48,3.13,US,1728610228
24,alaghsas,17.0187,8.0168,29.73,15,6,2.76,NE,1728610229
25,port augusta,-32.5,137.7667,19.67,31,100,5.9,AU,1728610166
26,burutu,5.3509,5.5076,25.06,90,6,2.11,NG,1728610232
27,port-aux-francais,-49.35,70.2167,2.69,81,97,13.04,TF,1728610233
28,martuk,50.7475,56.5056,2.87,71,54,5.92,KZ,1728610234
29,rongelap,11.1635,166.8941,27.35,80,100,4.83,MH,1728610235
30,mount gambier,-37.8333,140.7667,12.98,65,94,3.72,AU,1728609953
31,saldanha,-33.0117,17.9442,9.03,82,100,0.86,ZA,1728610237
32,waitangi,-43.9535,-176.5597,11.57,69,80,0.89,NZ,1728610238
33,chonchi,-42.6128,-73.8092,6.18,96,23,1.3,CL,1728610239
34,new norfolk,-42.7826,147.0587,16.62,46,0,6.3,AU,1728609845
35,kavieng,-2.5744,150.7967,29.73,70,13,4.79,PG,1728610242
36,mayqayyng,51.4625,75.7986,6.86,58,100,5.22,KZ,1728610243
37,bredasdorp,-34.5322,20.0403,11.7,88,99,1.81,ZA,1728610245
38,whitehorse,60.7161,-135.0538,6.43,61,100,6.71,CA,1728610246
39,livingston,55.9029,-3.5226,4.38,87,0,6.17,GB,1728609990
40,namanyere,-7.5167,31.05,16.88,83,99,3.16,TZ,1728610248
41,north battleford,52.7834,-108.2847,8.05,66,0,2.57,CA,1728610189
42,youghal,51.95,-7.8506,4.65,86,6,2.55,IE,1728610251
43,wailua homesteads,22.0669,-159.378,28.44,83,75,5.66,US,1728610252
44,port alfred,-33.5906,26.891,16.39,78,100,6.89,ZA,1728610253
45,yellowknife,62.456,-114.3525,6.34,98,75,6.17,CA,1728610254
46,grytviken,-54.2811,-36.5092,-0.12,97,100,2.15,GS,1728610255
47,kapuskasing,49.4169,-82.4331,11.05,71,100,4.63,CA,1728609962
48,thompson,55.7435,-97.8558,7.09,76,75,2.06,CA,1728609985
49,saint-philippe,-21.3585,55.7679,20.95,85,63,6.94,RE,1728610258
50,ntchisi,-13.5278,33.9149,14.41,74,93,1.21,MW,1728610260
51,yamada,39.4667,141.95,13.29,88,80,2.9,JP,1728610261
52,kimbe,-5.5502,150.1429,28.94,78,100,0.69,PG,1728610262
53,aasiaat,68.7098,-52.8699,-6.85,70,23,4.83,GL,1728610263
54,cellole,41.2048,13.8543,18.9,78,3,4.01,IT,1728610264
55,dudinka,69.4058,86.1778,-9.39,90,30,4.62,RU,1728610265
56,anahuac,27.2333,-100.15,27.76,32,0,4.99,MX,1728610266
57,tabas,33.5959,56.9244,22.37,18,0,2.05,IR,1728610268
58,tharangambadi,11.0319,79.8528,28.15,76,83,1.85,IN,1728610269
59,namdrik,5.5994,168.1028,29.38,70,89,4.57,MH,1728610270
60,holualoa,19.6228,-155.9522,26.25,75,0,3.6,US,1728610271
61,west island,-12.1568,96.8225,26.99,78,20,6.69,CC,1728610272
62,egilsstadir,65.2653,-14.3948,-1.05,86,100,2.57,IS,1728610273
63,alton north (historical),26.2953,-98.3045,28.89,58,0,3.6,US,1728610274
64,edinburgh of the seven seas,-37.0676,-12.3116,8.8,87,91,23.58,SH,1728610275
65,ushuaia,-54.8,-68.3,3.81,87,75,1.54,AR,1728610277
66,ilulissat,69.2167,-51.1,-0.99,37,46,2.06,GL,1728610278
67,hilo,19.7297,-155.09,26.85,84,0,3.6,US,1728610030
68,sur,22.5667,59.5289,27.76,54,2,0.88,OM,1728610280
69,bethel,41.3712,-73.414,9.45,71,2,0.89,US,1728610281
70,dryden,49.7833,-92.7503,17.16,59,75,3.09,CA,1728610283
71,qina,26.1642,32.7267,24.54,36,0,2.01,EG,1728610285
72,alice springs,-23.7,133.8833,28.75,9,0,8.75,AU,1728610286
73,mariehamn,60.0973,19.9348,8.92,93,100,4.63,AX,1728610288
74,bilibino,68.0546,166.4372,-10.98,94,69,0.4,RU,1728610289
75,calca,-13.3333,-71.95,15.64,76,100,2.8,PE,1728610290
76,tolanaro,-25.0319,46.9987,22.04,68,20,9.26,MG,1728610291
77,hithadhoo,-0.6,73.0833,28.06,75,91,4.9,MV,1728610293
78,chernyshevskiy,63.0128,112.4714,-4.13,72,100,2.73,RU,1728610294
79,fiambala,-27.6871,-67.6149,16.87,55,0,1.36,AR,1728610295
80,chibougamau,49.9168,-74.3659,5.79,87,100,3.6,CA,1728610296
81,basoko,1.2391,23.616,20.93,94,15,0.45,CD,1728610297
82,hamilton,39.1834,-84.5333,14.49,69,0,0.45,US,1728609764
83,college,64.8569,-147.8028,1.99,79,100,1.54,US,1728610299
84,at taraf,25.3628,49.725,26.3,65,0,2.57,SA,1728610300
85,iskateley,67.6803,53.1512,-2.71,63,100,8.11,RU,1728610301
86,likiep,9.8251,169.3107,27.49,75,100,3.65,MH,1728610303
87,yasinya,48.2794,24.3604,10.92,87,15,1.76,UA,1728610304
88,taoudenni,22.6783,-3.9836,33.9,22,1,5.59,ML,1728610305
89,cidreira,-30.1811,-50.2056,19.29,90,100,11.39,BR,1728610306
90,al harithah,30.7186,47.7208,20.98,32,0,3.09,IQ,1728610307
91,san julian,21.0167,-102.1667,13.96,42,7,3.7,MX,1728610308
92,casas grandes,30.3667,-107.95,21.09,20,2,3.01,MX,1728610309
93,port mathurin,-19.6833,63.4167,22.31,79,100,10.56,MU,1728610310
94,saipan,15.1355,145.701,29.39,84,75,3.09,MP,1728610311
95,olonkinbyen,70.9221,-8.7187,-3.13,92,100,20.83,SJ,1728610312
96,pyapon,16.2833,95.6833,28.43,79,6,1.55,MM,1728610314
97,margaret river,-33.95,115.0667,21.36,58,100,4.62,AU,1728610315
98,puerto natales,-51.7236,-72.4875,3.78,89,100,4.7,CL,1728610316
99,babayurt,43.6002,46.7789,13.3,73,100,1.97,RU,1728610317
100,touros,-5.1989,-35.4608,25.41,72,100,6.34,BR,1728610238
101,talnakh,69.4865,88.3972,-12.37,92,28,3.62,RU,1728610319
102,kone,-21.0595,164.8658,30.01,39,0,5.16,NC,1728610320
103,kapa'a,22.0752,-159.319,29.18,83,75,5.66,US,1728610321
104,buala,-8.145,159.5921,28.77,74,54,1.62,SB,1728610323
105,usinsk,65.9939,57.5281,-7.97,88,6,3.56,RU,1728610324
106,nemuro,43.3236,145.575,10.36,81,100,9.99,JP,1728610325
107,haiku-pauwela,20.9219,-156.3051,27.9,80,100,9.39,US,1728610326
108,kalengwa,-13.4659,25.0027,12.79,38,0,2.37,ZM,1728610327
109,puerto ayora,-0.7393,-90.3518,20.31,95,98,3.58,EC,1728610328
110,kralendijk,12.15,-68.2667,29.99,79,20,6.17,BQ,1728610329
111,santa cruz,-17.8,-63.1667,24.7,88,75,2.57,BO,1728610162
112,san luis de la loma,17.2706,-100.8939,24.99,90,99,2.45,MX,1728610332
113,albany,42.6001,-73.9662,9.23,65,4,0.89,US,1728610207
114,swift current,50.2834,-107.8014,9.45,53,0,2.57,CA,1728610334
115,geraldton,-28.7667,114.6,28.23,44,0,3.6,AU,1728610335
116,poronaysk,49.2167,143.1167,10.63,61,100,6.12,RU,1728610336
117,aweil,8.7682,27.4002,22.05,94,81,0.84,SS,1728610337
118,nova vicosa,-17.8919,-39.3719,23.99,90,100,2.73,BR,1728610338
119,kedrovyy,56.1667,91.8167,-4.53,69,68,1.59,RU,1728610339
120,uturoa,-16.7333,-151.4333,23.88,85,100,9.13,PF,1728610340
121,yuzhno-kurilsk,44.0306,145.8556,7.85,91,100,3.28,RU,1728610341
122,tobelo,1.7284,128.0095,29.18,67,100,1.46,ID,1728610343
123,forster,-32.1667,152.5167,24.1,69,3,5.06,AU,1728610344
124,tralee,52.2704,-9.7026,7.16,79,85,0.44,IE,1728610345
125,ivanovskoye,44.5795,41.8764,12.94,72,90,1.38,RU,1728610346
126,hermanus,-34.4187,19.2345,14.13,79,100,2.23,ZA,1728610347
127,gunjur,13.2019,-16.7339,26.04,78,75,4.63,GM,1728610348
128,fale old settlement,-9.3852,-171.2468,28.03,77,93,4.59,TK,1728610349
129,san pedro pochutla,15.7333,-96.4667,26.84,90,82,1.52,MX,1728610350
130,hawaiian paradise park,19.5933,-154.9731,26.73,81,0,3.6,US,1728610352
131,balabac,7.9868,117.0645,30.35,66,11,4.62,PH,1728610353
132,juan griego,11.0817,-63.9655,22.07,100,100,6.69,VE,1728610354
133,zilair,52.2332,57.4392,-0.89,75,100,5.21,RU,1728610355
134,bumba,2.1833,22.4667,19.89,97,73,0.24,CD,1728610356
135,klyuchi,52.2667,79.1667,6.45,54,100,8.39,RU,1728610357
136,chegdomyn,51.1167,133.0167,5.85,69,58,4.06,RU,1728610358
137,mejit,10.2753,170.8646,27.92,77,100,5.31,MH,1728610359
138,nuuk,64.1835,-51.7216,-1.66,100,100,0.0,GL,1728610360
139,oban,56.4127,-5.4706,8.87,79,99,9.07,GB,1728610361
140,montmagny,48.9734,2.3469,10.01,98,0,2.57,FR,1728610363
141,quellon,-43.1167,-73.6167,5.76,91,30,2.64,CL,1728610364
142,maumere,-8.6199,122.2111,30.55,62,98,1.06,ID,1728610365
143,tiksi,71.6872,128.8694,-5.19,88,96,2.1,RU,1728610366
144,kingston,17.997,-76.7936,29.53,79,20,1.54,JM,1728609906
145,ad dilam,23.9915,47.1627,24.65,25,0,1.03,SA,1728610368
146,vadso,70.0744,29.7487,5.09,81,75,4.63,NO,1728610369
147,reggane,26.7158,0.1714,31.06,23,0,3.36,DZ,1728610370
148,enewetak,11.3474,162.3373,28.88,75,100,3.51,MH,1728610371
149,turkmenbasy,40.0222,52.9552,13.43,94,0,3.09,TM,1728610373
150,ribeira grande,38.5167,-28.7,18.21,87,100,4.02,PT,1728610374
151,jamestown,42.097,-79.2353,6.8,90,0,2.57,US,1728610375
152,stanley,54.868,-1.6985,2.38,92,0,3.6,GB,1728610376
153,atafu village,-8.5421,-172.5159,28.25,76,26,4.24,TK,1728610377
154,antsiranana,-12.2787,49.2917,23.99,61,2,7.85,MG,1728610378
155,east london,-33.0153,27.9116,18.08,78,99,6.55,ZA,1728610379
156,avarua,-21.2078,-159.775,25.03,73,20,8.23,CK,1728610380
157,anloga,5.7947,0.8973,26.03,85,99,3.56,GH,1728610381
158,shubarshi,48.5872,57.1869,5.39,73,13,6.02,KZ,1728610383
159,kiunga,-6.1219,141.2906,33.21,55,61,1.19,PG,1728610384
160,tongliao,43.6125,122.2653,18.07,33,3,4.73,CN,1728610385
161,rawai,7.7797,98.3253,27.36,77,100,2.68,TH,1728610386
162,alo,6.5486,4.2686,24.83,89,40,1.26,NG,1728610387
163,vlore,40.4667,19.4897,21.93,80,17,7.0,AL,1728610388
164,price,39.5994,-110.8107,19.77,22,100,0.56,US,1728610126
165,ko pha ngan,9.7578,100.0291,28.38,72,100,1.76,TH,1728610390
166,constantia,44.1833,28.65,15.39,66,7,1.78,RO,1728610391
167,khandyga,62.6667,135.6,1.75,68,100,3.17,RU,1728610393
168,oppdal,62.5943,9.6912,-1.41,97,98,2.0,NO,1728610394
169,badger,64.8,-147.5333,1.95,81,75,1.54,US,1728610395
170,ust-nera,64.5667,143.2,-3.26,74,82,1.71,RU,1728610396
171,magog,45.2668,-72.1491,8.9,76,88,5.66,CA,1728610397
172,cabo san lucas,22.8909,-109.9124,29.17,78,0,3.6,MX,1728610389
173,barra de santo antonio,-9.4047,-35.5072,25.36,68,100,5.37,BR,1728610399
174,hasaki,35.7333,140.8333,20.49,64,90,5.08,JP,1728610400
175,sinabang,2.4803,96.3801,24.55,95,100,1.76,ID,1728610401
176,vorgashor,67.5833,63.95,-10.4,98,64,0.78,RU,1728610403
177,ulladulla,-35.35,150.4667,21.18,57,35,6.04,AU,1728610404
178,puerto cabezas,14.0351,-83.3888,25.15,91,73,3.64,NI,1728610405
179,afaahiti,-17.75,-149.2833,21.69,90,100,9.62,PF,1728610406
180,vernon,50.2581,-119.2691,13.2,49,97,1.34,CA,1728610200
181,micheweni,-4.9667,39.8333,24.43,83,7,4.41,TZ,1728610408
182,coruripe,-10.1256,-36.1756,25.58,63,100,5.93,BR,1728610409
183,bereznik,62.8551,42.7072,0.87,94,100,6.08,RU,1728610410
184,north platte,41.1239,-100.7654,22.26,34,0,2.24,US,1728610411
185,crane,31.3974,-102.3501,26.54,17,0,5.72,US,1728610414
186,kotabumi,-4.8333,104.9,31.08,53,96,2.51,ID,1728610415
187,tazovsky,67.4667,78.7,-2.96,89,100,6.19,RU,1728610416
188,floro,61.5996,5.0328,4.98,87,100,2.06,NO,1728610417
189,carolina beach,34.0352,-77.8936,16.68,65,0,8.03,US,1728610418
190,cabedelo,-6.9811,-34.8339,26.37,77,100,5.4,BR,1728610419
191,nagqu,31.5,92.0,4.37,52,38,2.89,CN,1728610422
192,verkhnevilyuysk,63.4453,120.3167,-2.59,87,96,0.95,RU,1728610423
193,bel ombre,-4.6167,55.4167,27.91,78,40,6.17,SC,1728610424
194,gadzhiyevo,69.2551,33.3362,3.2,90,100,8.95,RU,1728610425
195,rio grande,-32.035,-52.0986,17.69,94,100,9.82,BR,1728610413
196,umba,66.6871,34.3429,3.57,95,100,10.61,RU,1728610427
197,chul'man,56.8479,124.9104,0.05,91,100,4.19,RU,1728610428
198,queenstown,-31.8976,26.8753,19.38,20,83,3.25,ZA,1728610429
199,benguela,-12.5763,13.4055,23.04,84,1,1.46,AO,1728610430
200,tres de maio,-27.7733,-54.24,19.1,99,100,1.87,BR,1728610431
201,rajapolah,-7.221,108.1896,26.96,73,60,1.92,ID,1728610433
202,qaqortoq,60.7167,-46.0333,1.74,87,82,1.41,GL,1728610434
203,phaltan,17.9833,74.4333,23.89,83,99,3.04,IN,1728610435
204,sitia,35.2,26.0986,22.19,74,72,0.98,GR,1728610436
205,howard springs,-12.497,131.047,31.04,73,11,3.21,AU,1728610437
206,tadmur,34.5608,38.2805,21.2,59,3,3.68,SY,1728610438
207,tulun,54.5611,100.5792,-2.38,86,100,3.06,RU,1728610440
208,pisco,-13.7,-76.2167,17.23,82,0,4.63,PE,1728610442
209,uzgen,40.7699,73.3007,16.02,49,70,2.53,KG,1728610444
210,alofi,-19.0595,-169.9187,27.94,69,75,5.14,NU,1728610445
211,zaozersk,69.4005,32.4476,3.15,89,100,3.68,RU,1728610446
212,camana,-16.6228,-72.7111,17.03,86,98,4.14,PE,1728610447
213,gobabis,-22.45,18.9667,20.12,22,0,5.54,NA,1728610450
214,vilyuchinsk,52.9306,158.4028,8.15,52,98,2.44,RU,1728610451
215,breckenridge,32.7557,-98.9023,27.11,41,0,2.57,US,1728610452
216,tawau,4.2498,117.8871,31.07,77,68,1.1,MY,1728610453
217,puerto deseado,-47.7503,-65.8938,11.08,40,33,8.01,AR,1728610454
218,macia,-25.0269,33.0989,17.22,79,0,1.93,MZ,1728610455
219,callao,-12.0667,-77.15,18.73,88,100,5.14,PE,1728610457
220,lamu,-2.2717,40.902,24.7,84,22,6.59,KE,1728610458
221,changsu,35.6484,127.5152,19.28,61,0,1.27,KR,1728610459
222,villa gesell,-37.2639,-56.973,13.62,96,64,4.45,AR,1728610460
223,kodiak,57.79,-152.4072,7.73,71,100,4.12,US,1728610462
224,patong,7.8961,98.2966,29.08,77,100,1.54,TH,1728610464
225,nuku'alofa,-21.1333,-175.2,26.19,94,75,6.69,TO,1728610465
226,utrik,11.2278,169.8474,27.25,78,100,4.22,MH,1728610466
227,nchelenge,-9.3451,28.734,22.52,66,98,2.13,ZM,1728610467
228,broome,42.2506,-75.833,5.82,88,0,3.6,US,1728610468
229,mount isa,-20.7333,139.5,34.87,10,0,5.66,AU,1728610469
230,horta,38.5333,-28.6333,17.79,87,100,4.02,PT,1728610470
231,tsiombe,-25.3,45.4833,20.08,74,1,2.95,MG,1728610471
232,fort st. john,56.2499,-120.8529,7.94,49,75,5.66,CA,1728610291
233,nuriootpa,-34.4833,139.0,19.7,33,97,4.32,AU,1728610474
234,labytnangi,66.6572,66.4183,-8.28,89,7,1.48,RU,1728610475
235,dingcheng,32.1272,115.0394,23.33,49,20,0.87,CN,1728610476
236,salaqi,40.5414,110.5108,14.09,40,0,2.96,CN,1728610477
237,petauke,-14.2426,31.3253,18.18,56,19,3.28,ZM,1728610478
238,vilhena,-12.7406,-60.1458,22.61,80,100,0.67,BR,1728610479
239,kotma,23.2,81.9667,23.87,64,47,0.43,IN,1728610480
240,nantucket,41.2835,-70.0995,13.06,50,0,9.79,US,1728610481
241,qarqaraly,49.4058,75.4742,9.99,52,92,2.74,KZ,1728610483
242,port saint john's,-31.6229,29.5448,19.99,86,100,5.84,ZA,1728610484
243,ancud,-41.8697,-73.8203,7.1,86,86,2.38,CL,1728610485
244,quatre cocos,-20.2078,57.7625,22.27,71,100,7.65,MU,1728610486
245,hobyo,5.3505,48.5268,25.06,84,71,8.77,SO,1728610487
246,longyearbyen,78.2186,15.6401,2.91,75,75,6.69,SJ,1728610488
247,tionk essil,12.7856,-16.5217,23.29,95,100,2.84,SN,1728610489
248,weno,7.4515,151.8468,32.97,70,100,3.6,FM,1728610490
249,robore,-18.3333,-59.75,23.31,87,59,1.38,BO,1728610491
250,hadibu,12.65,54.0333,25.37,81,100,1.35,YE,1728610493
251,kenai,60.5544,-151.2583,7.23,71,100,3.6,US,1728610394
252,altay,47.8667,88.1167,12.06,38,0,1.36,CN,1728610495
253,suez,29.9737,32.5263,20.21,89,0,4.35,EG,1728610496
254,vila franca do campo,37.7167,-25.4333,20.23,99,100,7.61,PT,1728610497
255,tanabi,-20.6264,-49.6492,20.22,94,97,2.76,BR,1728610498
256,castaic,34.4889,-118.6229,26.33,41,82,1.59,US,1728610501
257,port lincoln,-34.7333,135.8667,15.13,60,74,5.33,AU,1728610502
258,tofol,5.3248,163.0078,30.88,70,75,1.54,FM,1728610503
259,quirinopolis,-18.4483,-50.4517,24.29,60,50,0.81,BR,1728610504
260,muisne,0.6,-80.0333,24.0,85,100,3.4,EC,1728610505
261,flying fish cove,-10.4217,105.6791,26.82,83,75,6.69,CX,1728610351
262,isafjordur,66.0755,-23.124,-3.01,70,81,3.12,IS,1728610507
263,pemangkat,1.1667,108.9667,27.17,82,100,3.04,ID,1728610508
264,novyy urengoy,66.0833,76.6333,-3.37,90,96,6.19,RU,1728610510
265,fukuecho,32.6881,128.8419,23.2,56,40,5.14,JP,1728610511
266,maracacume,-2.0428,-45.9592,21.94,96,59,1.3,BR,1728610512
267,aleksandrovsk-sakhalinskiy,50.8975,142.1561,11.1,60,100,6.09,RU,1728610513
268,fujin,47.26,132.0322,12.63,31,6,5.04,CN,1728610514
269,kailua-kona,19.6406,-155.9956,28.32,72,0,3.6,US,1728610515
270,pontes e lacerda,-15.2261,-59.3353,28.11,55,84,2.84,BR,1728610516
271,waingapu,-9.6567,120.2641,31.42,60,70,7.06,ID,1728610517
272,figuig (centre),32.1089,-1.2286,23.57,44,0,2.62,MA,1728610519
273,fortuna,40.5982,-124.1573,15.52,84,0,3.6,US,1728610520
274,keetmanshoop,-26.5833,18.1333,26.51,13,36,0.51,NA,1728610521
275,morondava,-20.2833,44.2833,23.75,70,84,3.33,MG,1728610522
276,fort mcmurray,56.7268,-111.381,8.73,53,100,3.6,CA,1728610523
277,lospalos,-8.5186,127.0025,28.88,59,36,5.46,TL,1728610524
278,mandalgovi,45.7625,106.2708,6.78,47,5,2.27,MN,1728610098
279,tommot,58.9564,126.2925,2.43,79,100,2.78,RU,1728610527
280,briare,47.6334,2.7438,9.78,89,68,1.48,FR,1728610528
281,zeribet el oued,34.6828,6.5111,27.7,39,63,4.53,DZ,1728610529
282,ovalle,-30.5983,-71.2003,14.23,83,42,1.01,CL,1728610344
283,island harbour,50.724,-1.2758,7.33,69,39,3.03,GB,1728610532
284,lethem,3.3803,-59.7968,28.9,56,100,3.77,GY,1728610534
285,punta arenas,-53.15,-70.9167,6.06,70,75,7.72,CL,1728610087
286,el galpon,-25.3807,-64.6526,14.15,95,0,0.79,AR,1728610537
287,olinda,-8.0089,-34.8553,26.85,74,40,5.14,BR,1728609794
288,iquique,-20.2208,-70.1431,16.76,69,1,1.81,CL,1728610314
289,saint-joseph,-21.3667,55.6167,19.21,82,44,6.96,RE,1728610540
290,bafoulabe,13.8065,-10.8321,26.13,82,100,1.09,ML,1728610541
291,georgetown,5.4112,100.3354,27.96,89,20,1.03,MY,1728610368
292,la huerta,19.4667,-104.65,22.96,97,71,0.67,MX,1728610543
293,enriquillo,17.9,-71.2333,25.98,86,60,1.96,DO,1728610544
294,fort bragg,35.139,-79.006,15.46,59,0,2.06,US,1728610545
295,ligaya,12.6599,120.8923,29.67,70,3,1.73,PH,1728610547
296,corinto,37.9407,22.9573,20.5,70,100,0.36,GR,1728610548
297,bodaybo,57.8506,114.1933,-0.09,84,100,1.5,RU,1728610549
298,valentin gomez farias,28.2167,-106.5833,18.64,32,20,3.09,MX,1728610550
299,lerwick,60.1545,-1.1494,5.7,70,100,3.67,GB,1728610551
300,dongola,19.1667,30.4833,28.26,20,44,4.37,SD,1728610552
301,jining,35.405,116.5814,21.87,45,0,1.04,CN,1728610554
302,aydarken,39.9443,71.3429,8.24,48,12,3.03,KG,1728610555
303,kharkhorin,47.1975,102.8238,6.49,43,0,2.93,MN,1728610098
304,farias brito,-6.9306,-39.5656,25.29,45,46,2.74,BR,1728610558
305,cova figueira,14.8905,-24.2934,21.12,85,76,5.9,CV,1728610559
306,lee acres,35.1487,-106.647,25.21,19,0,2.24,US,1728610560
307,muroran,42.3172,140.9881,15.0,62,15,1.24,JP,1728610561
308,dunedin,-45.8742,170.5036,12.67,58,12,2.09,NZ,1728610562
309,kas,36.2018,29.6377,21.51,59,42,1.68,TR,1728610563
310,taroa,8.7058,171.2275,28.27,73,100,2.54,MH,1728610564
311,yerofey pavlovich,53.9667,121.9667,3.93,58,30,2.24,RU,1728610565
312,grantsville,40.5999,-112.4644,22.58,30,0,2.57,US,1728610566
313,san patricio,28.017,-97.5169,25.97,56,0,3.93,US,1728610568
314,ahvaz,31.3203,48.6693,19.97,49,0,0.0,IR,1728610569
315,shakawe,-18.3667,21.85,17.98,26,0,1.56,BW,1728610570
316,polyarnyy,69.1989,33.4478,3.13,90,100,9.63,RU,1728610571
317,port macquarie,-31.4333,152.9167,21.71,75,0,2.68,AU,1728610572
318,tarko-sale,64.9225,77.785,-3.53,88,92,6.48,RU,1728610573
319,bangassou,4.7413,22.8184,19.9,99,40,0.74,CF,1728610574
320,selkirk,50.1436,-96.8845,14.54,74,100,4.02,CA,1728610575
321,walvis bay,-22.9575,14.5053,14.53,72,0,1.54,NA,1728610576
322,klamath falls,42.2249,-121.7817,22.95,30,0,2.57,US,1728610577
323,paso de los toros,-32.8167,-56.5167,16.54,97,100,2.86,UY,1728610579
324,kalemie,-5.9475,29.1947,22.5,81,99,2.95,CD,1728610580
325,al jawf,29.5,38.75,21.91,31,0,3.23,SA,1728610581
326,palmas,-10.2128,-48.3603,27.93,61,20,3.6,BR,1728610109
327,st. john's,47.5649,-52.7093,10.31,96,20,3.09,CA,1728610456
328,inhambane,-23.865,35.3833,19.75,79,0,2.61,MZ,1728610584
329,axim,4.8699,-2.2405,24.59,92,11,2.15,GH,1728610585
330,kingscliff,-28.2667,153.5667,23.3,64,75,5.66,AU,1728610587
331,cileunyi,-6.9389,107.7528,27.75,73,20,1.69,ID,1728610589
332,luderitz,-26.6481,15.1594,15.05,71,7,4.8,NA,1728610590
333,mili,6.0815,171.735,28.66,73,94,3.85,MH,1728610591
334,sao tome,0.3365,6.7273,25.21,84,100,3.31,ST,1728610592
335,strathalbyn,-35.2667,138.9,17.14,68,4,5.37,AU,1728610593
336,port blair,11.6667,92.75,27.02,89,20,1.03,IN,1728610594
337,acarau,-2.8856,-40.12,25.57,79,75,6.72,BR,1728610595
338,tonekabon,36.8163,50.8738,19.97,88,76,1.22,IR,1728610596
339,conceicao da barra,-18.5933,-39.7322,23.03,95,100,3.62,BR,1728610598
340,tshikapa,-6.4167,20.8,21.61,92,100,1.4,CD,1728610599
341,bokhan,53.153,103.7714,1.78,60,100,2.19,RU,1728610600
342,lompoc,34.6391,-120.4579,20.38,85,0,3.6,US,1728610601
343,zaragoza,41.6561,-0.8773,13.78,67,20,3.09,ES,1728610602
344,archangelos,36.2149,28.1149,22.39,89,88,2.29,GR,1728610603
345,scarborough,54.2797,-0.4044,3.21,84,1,1.79,GB,1728610289
346,namibe,-15.1961,12.1522,18.92,85,9,1.52,AO,1728610605
347,smithers,54.7804,-127.1743,8.18,71,75,0.0,CA,1728610606
348,igarka,67.4667,86.5833,-8.62,91,92,6.98,RU,1728610608
349,tura,25.5198,90.2201,24.64,93,25,1.64,IN,1728610609
350,kuqa,41.7278,82.9364,17.83,31,86,1.33,CN,1728610610
351,quepos,9.4236,-84.1652,25.2,90,100,0.83,CR,1728610433
352,lihue,21.9789,-159.3672,28.77,65,75,5.66,US,1728610577
353,aberdeen,57.1437,-2.0981,6.27,83,100,4.63,GB,1728610613
354,nadym,65.5333,72.5167,-2.71,83,87,5.29,RU,1728610614
355,maebaru-chuo,33.55,130.2,22.82,57,3,4.47,JP,1728610615
356,corralillo,22.9819,-80.5856,26.08,79,62,2.39,CU,1728610616
357,pontevedra,42.431,-8.6444,13.5,88,100,2.24,ES,1728610325
358,port elizabeth,-33.918,25.5701,15.17,89,0,5.14,ZA,1728610619
359,long beach,33.767,-118.1892,23.03,79,0,5.66,US,1728610376
360,isla mujeres,21.2311,-86.731,26.03,70,23,5.97,MX,1728610621
361,shingu,33.7333,135.9833,22.99,60,100,1.55,JP,1728610622
362,isangel,-19.55,169.2667,28.06,69,75,6.17,VU,1728610623
363,anadyr,64.75,177.4833,-1.11,63,20,3.0,RU,1728610624
364,nar'yan-mar,67.6713,53.087,-2.74,63,100,8.18,RU,1728610625
365,bikenibeu village,1.3673,173.1241,30.98,70,75,5.14,KI,1728610626
366,porto seguro,-16.4497,-39.0647,26.29,89,40,3.09,BR,1728610627
367,novo aripuana,-5.1206,-60.3797,28.08,42,18,1.39,BR,1728610629
368,jiayuguan,39.8167,98.3,14.3,24,100,0.51,CN,1728610630
369,khenifra,32.9333,-5.6667,17.47,64,0,1.11,MA,1728610631
370,mananjary,-21.2167,48.3333,20.07,82,60,0.62,MG,1728610632
371,piacabucu,-10.4056,-36.4344,25.43,69,100,5.38,BR,1728610633
372,happy valley-goose bay,53.3168,-60.3315,7.17,100,100,1.54,CA,1728610634
373,balqash,46.8481,74.995,13.31,67,100,7.58,KZ,1728610635
374,ta`u,-14.2336,-169.5144,26.72,81,51,8.61,AS,1728610636
375,santa marta,11.2408,-74.199,27.16,83,40,2.06,CO,1728610383
376,praia da vitoria,38.7333,-27.0667,19.14,82,75,10.44,PT,1728610638
377,licheng,23.2955,113.8284,25.43,57,100,1.17,CN,1728610640
378,nadi,-17.8,177.4167,29.0,74,40,7.2,FJ,1728610641
379,sanctuary point,-35.1114,150.629,20.98,59,77,6.31,AU,1728610642
380,silver city,32.7701,-108.2803,21.48,29,0,4.12,US,1728610643
381,ayacucho,-13.1583,-74.2239,13.09,70,36,2.74,PE,1728610644
382,ruidoso,33.3317,-105.673,20.08,35,100,1.54,US,1728610645
383,general conesa,-40.1,-64.4333,15.85,63,4,6.09,AR,1728610646
384,port isabel,26.0734,-97.2086,26.02,78,0,0.0,US,1728610561
385,aromashevo,56.8602,68.6375,-1.9,73,100,7.55,RU,1728610648
386,pacific grove,36.6177,-121.9166,17.06,91,0,2.68,US,1728610649
387,bogale,16.2833,95.4,28.13,79,5,1.5,MM,1728610651
388,as sulayyil,20.4607,45.5779,24.98,28,3,4.37,SA,1728610652
389,conde,-7.2597,-34.9075,25.7,73,0,4.12,BR,1728610653
390,jayapura,-2.5333,140.7,31.66,66,52,2.67,ID,1728610654
391,castletown,53.0281,-9.0686,3.38,86,10,1.51,IE,1728610655
392,gizo,-8.103,156.8419,28.35,73,100,1.47,SB,1728610656
393,corral de bustos,-33.2821,-62.1846,17.04,55,0,2.89,AR,1728610657
394,maceio,-9.6658,-35.7353,22.69,94,40,2.06,BR,1728610578
395,nelson bay,-32.7167,152.15,21.73,74,0,1.34,AU,1728610660
396,ploneour-lanvern,47.9,-4.2833,6.18,100,0,2.06,FR,1728610661
397,northam,51.0333,-4.2167,7.36,65,23,1.34,GB,1728610574
398,paragominas,-2.9667,-47.4833,26.83,65,85,2.75,BR,1728610663
399,sal rei,16.1833,-22.9167,26.46,86,100,12.88,CV,1728610664
400,san juan nepomuceno,9.9516,-75.082,23.96,92,100,1.04,CO,1728610665
401,carutapera,-1.195,-46.02,25.4,81,78,3.44,BR,1728610666
402,loukhi,66.0764,33.0381,3.65,96,100,5.81,RU,1728610667
403,celestun,20.8667,-90.4,25.96,79,49,4.29,MX,1728610669
404,khanty-mansiysk,61.0042,69.0019,-1.94,74,40,3.0,RU,1728610670
405,george town,5.4112,100.3354,27.96,89,20,1.03,MY,1728610671
406,bechar,31.6167,-2.2167,22.18,43,0,2.06,DZ,1728610672
407,zapadnaya dvina,56.259,32.0745,10.62,88,54,4.87,RU,1728610673
408,neryungri,56.6709,124.6491,-0.22,92,100,4.39,RU,1728610674
409,griffith,41.5284,-87.4237,13.24,77,0,0.0,US,1728610675
410,nova sintra,14.8667,-24.7167,26.64,85,100,9.93,CV,1728610676
411,istaravshan,39.9142,69.0033,16.89,38,0,3.95,TJ,1728610677
412,coeur d'alene,47.6777,-116.7805,12.84,47,36,1.34,US,1728610679
413,shibganj,24.6829,88.1598,28.72,72,51,2.43,BD,1728610680
414,gobo,33.8833,135.15,22.22,59,100,5.64,JP,1728610681
415,berdigestyakh,62.0989,126.6992,-0.21,91,100,1.67,RU,1728610682
416,binhe,32.6883,112.8275,23.73,43,83,2.67,CN,1728610683
417,anori,-3.7728,-61.6442,29.12,36,100,1.55,BR,1728610684
418,abdulino,53.7,53.6667,0.47,71,76,7.26,RU,1728610685
419,siwa oasis,29.2041,25.5195,25.05,34,0,1.1,EG,1728610687
420,trevelin,-43.0858,-71.4639,5.36,79,99,2.05,AR,1728610689
421,copalnic manastur,47.5,23.6833,16.12,87,90,2.14,RO,1728610690
422,las khorey,11.1595,48.1967,28.43,60,11,1.52,SO,1728610691
423,aljezur,37.3191,-8.8033,19.48,92,99,6.1,PT,1728610692
424,nouadhibou,20.931,-17.0347,25.99,61,70,2.57,MR,1728610693
425,nikolayevsk-on-amure,53.1406,140.73,11.95,62,100,4.95,RU,1728610662
426,las tablas,7.7667,-80.2833,25.1,99,100,2.38,PA,1728610695
427,nueva gerona,21.8833,-82.8,27.42,77,28,4.31,CU,1728610696
428,salinopolis,-0.6136,-47.3561,26.59,82,48,4.48,BR,1728610697
429,pailon,-17.65,-62.75,20.77,81,79,6.82,BO,1728610699
430,stornoway,58.2093,-6.3865,6.72,79,95,6.17,GB,1728610700
431,twentynine palms,34.1356,-116.0542,30.84,13,0,3.59,US,1728610694
432,nizhneudinsk,54.9076,99.0276,-1.79,77,100,2.47,RU,1728610702
433,mandan,46.8267,-100.8896,19.76,42,100,5.66,US,1728610703
434,san antonio de pale,-1.4014,5.6325,24.36,80,100,5.01,GQ,1728610704
435,najaf,31.9985,44.3398,20.88,46,0,0.0,IQ,1728610705
436,karmala,18.4167,75.2,23.95,81,100,5.26,IN,1728610706
437,argo,37.6333,22.7333,22.19,60,100,1.13,GR,1728610707
438,amga,60.8953,131.9608,3.73,81,100,1.66,RU,1728610708
439,minas de marcona,-15.2119,-75.1103,12.0,86,65,6.64,PE,1728610710
440,montmorillon,46.4167,0.6667,9.15,96,29,2.55,FR,1728610711
441,noyabrsk,63.1994,75.4507,-3.92,92,100,5.29,RU,1728610712
442,revda,56.801,59.9303,-6.3,92,100,5.43,RU,1728610713
443,prado,-17.3411,-39.2208,24.71,85,100,2.19,BR,1728610714
444,brookings,44.3114,-96.7984,20.66,57,3,3.85,US,1728610715
445,pasighat,28.0667,95.3333,21.57,98,100,0.45,IN,1728610716
446,westport,41.1415,-73.3579,11.53,65,0,2.06,US,1728610663
447,ghanzi,-21.5667,21.7833,20.06,25,2,3.95,BW,1728610718
448,wagar,16.1525,36.2032,29.13,53,24,6.42,SD,1728610720
449,carnarvon,-24.8667,113.6333,27.48,46,0,3.33,AU,1728610721
450,bogo,11.0517,124.0055,31.08,67,31,0.68,PH,1728610722
451,broken hill,-31.95,141.4333,20.31,29,55,8.25,AU,1728610723
452,greymouth,-42.4667,171.2,11.86,65,99,3.69,NZ,1728610724
453,naantali,60.4674,22.0243,14.65,94,100,6.69,FI,1728610725
454,chadron,42.8294,-102.9999,21.82,25,0,3.6,US,1728610726
455,balvi,57.1313,27.2658,15.43,78,100,4.99,LV,1728610727
456,santa ana,33.7456,-117.8678,26.36,59,20,2.57,US,1728610706
457,kirakira,-10.4544,161.9205,28.44,75,99,4.54,SB,1728610729
458,suva,-18.1416,178.4415,29.71,70,40,3.09,FJ,1728610731
459,sariveliler,36.6913,32.6196,9.82,76,49,0.87,TR,1728610733
460,cardigan,52.0847,-4.6591,4.94,70,4,1.28,GB,1728610734
461,padangsidempuan,1.3667,99.2667,23.35,96,100,0.18,ID,1728610735
462,yaren,-0.5472,166.916,28.37,68,53,5.15,NR,1728610736
463,katsuura,35.1333,140.3,21.24,66,71,4.39,JP,1728610737
464,gamay,12.3854,125.2979,28.12,90,24,1.28,PH,1728610738
465,valdivia,-39.8142,-73.2459,11.05,100,100,0.87,CL,1728610611
466,la ronge,55.1001,-105.2842,7.14,70,20,1.54,CA,1728610742
467,arraial do cabo,-22.9661,-42.0278,21.33,90,100,11.63,BR,1728610743
468,rosario do sul,-30.2583,-54.9142,17.68,99,100,3.49,BR,1728610744
469,pechora,65.1472,57.2244,-5.64,84,30,2.72,RU,1728610745
470,aykol,38.1751,77.2132,16.33,37,0,1.69,CN,1728610746
471,grange,-34.9,138.4833,19.94,49,79,6.89,AU,1728610747
472,orcopampa,-15.2661,-72.3417,8.44,43,38,2.1,PE,1728610749
473,barranca,-10.75,-77.7667,17.02,88,56,3.35,PE,1728610750
474,nizhniy ingash,56.2,96.53,-3.19,66,18,2.17,RU,1728610751
475,crockett,31.3182,-95.4566,20.9,68,2,0.0,US,1728610753
476,ribnitz-damgarten,54.25,12.4667,10.1,69,69,7.59,DE,1728610754
477,tazacorte,28.629,-17.9293,22.54,76,0,2.06,ES,1728610755
478,boromo,11.75,-2.9333,25.0,78,80,1.8,BF,1728610756
479,keflavik,64.0049,-22.5624,0.24,64,3,10.29,IS,1728610757
480,labrador city,52.9463,-66.9114,3.43,85,100,4.63,CA,1728610759
481,colipapa,9.4726,122.5616,29.0,73,11,1.73,PH,1728610760
482,kendari,-3.945,122.4989,29.6,72,54,1.57,ID,1728610761
483,beloyarskiy,63.7119,66.6722,-7.21,96,12,1.18,RU,1728610762
484,mossel bay,-34.1831,22.146,14.96,79,100,2.88,ZA,1728610763
485,nieuw amsterdam,5.8833,-55.0833,25.79,85,80,2.85,SR,1728610764
486,porto velho,-8.7619,-63.9039,28.03,69,20,0.0,BR,1728609938
487,los llanos de aridane,28.6585,-17.9182,20.86,76,0,2.06,ES,1728610767
488,lauro de freitas,-12.8944,-38.3272,26.01,73,20,4.12,BR,1728610522
489,ndibene dahra,15.3338,-15.4766,24.01,84,100,1.8,SN,1728610770
490,mineiros,-17.5694,-52.5511,23.31,77,97,0.63,BR,1728610771
491,batouri,4.4333,14.3667,18.74,98,44,0.68,CM,1728610772
492,prince albert,53.2001,-105.7677,6.97,65,20,2.06,CA,1728610337
493,buka,40.8108,69.1986,17.22,40,47,3.01,UZ,1728610774
494,nema,57.5067,50.5011,-2.96,70,59,3.87,RU,1728610775
495,mount pearl,47.5166,-52.7813,9.85,96,20,3.09,CA,1728610776
496,arapgir,39.0412,38.4952,17.68,32,97,1.64,TR,1728610777
497,manakara,-22.1333,48.0167,19.28,83,52,1.45,MG,1728610778
498,bardai,11.65,7.2333,23.18,69,7,1.8,NG,1728610780
499,vradiyivka,47.862,30.5919,13.77,95,1,2.88,UA,1728610781
500,kencong,-8.2833,113.3667,30.51,57,86,2.1,ID,1728610782
501,margate,51.3813,1.3862,7.61,78,6,4.11,GB,1728610783
502,kotlas,61.2611,46.6556,0.23,63,100,4.28,RU,1728610785
503,khovd,48.0056,91.6419,10.66,36,10,1.14,MN,1728610786
504,coquimbo,-29.9533,-71.3436,12.85,82,75,2.06,CL,1728610282
505,kolonia town,6.964,158.206,32.06,70,75,5.14,FM,1728610788
506,veraval,20.9,70.3667,24.35,84,100,7.48,IN,1728610790
507,fonte boa,-2.4959,-66.2662,25.91,68,88,0.29,BR,1728610791
508,gurun,5.8172,100.4738,22.52,88,100,0.69,MY,1728610792
509,gore,-46.1028,168.9436,15.18,59,77,4.74,NZ,1728610793
510,gagarawa,12.4074,9.5277,28.12,53,7,1.32,NG,1728610795
511,hancheng,32.5186,112.3522,23.28,41,89,1.68,CN,1728610796
512,kargat,55.1956,80.2811,-1.02,52,100,7.61,RU,1728610797
513,mahajanga,-15.7167,46.3167,22.01,53,20,2.57,MG,1728610798
514,bubaque,11.2833,-15.8333,26.42,80,100,4.15,GW,1728610800
515,verdal,63.7933,11.4817,5.83,75,100,5.4,NO,1728610801
516,jiujiang,29.7333,115.9833,24.75,45,30,4.03,CN,1728610802
517,elko,41.0002,-115.5012,21.47,20,100,2.24,US,1728610803
518,bamboo flat,11.7,92.7167,27.05,89,20,1.03,IN,1728610804
519,xiongzhou,25.1167,114.3,24.69,53,0,1.73,CN,1728610805
520,brooks,50.5834,-111.8851,9.46,71,72,1.54,CA,1728610806
521,puerto aysen,-45.4,-72.7,3.89,98,80,1.95,CL,1728610807
522,miyang,24.4042,103.4428,16.56,96,100,1.4,CN,1728610809
523,lazaro cardenas,17.9583,-102.2,26.27,84,53,1.2,MX,1728610810
524,sioux center,43.0797,-96.1756,20.56,60,4,4.37,US,1728610811
525,gaspe,48.8334,-64.4819,7.12,87,75,3.6,CA,1728610812
526,macusani,-14.0833,-70.4333,3.37,88,89,2.6,PE,1728610813
527,sampit,-2.5333,112.95,28.08,85,73,1.5,ID,1728610814
528,peniche,39.3558,-9.3811,18.45,92,100,7.16,PT,1728610815
529,tadine,-21.55,167.8833,24.36,57,0,6.61,NC,1728610816
530,huarmey,-10.0681,-78.1522,17.75,89,16,3.42,PE,1728610817
531,iguala de la independencia,18.35,-99.5333,22.56,79,33,1.76,MX,1728610819
532,sonoita,31.85,-112.8333,30.79,30,7,2.05,MX,1728610820
533,klaksvik,62.2266,-6.589,4.8,61,100,11.67,FO,1728610821
534,santiago de cao,-7.9589,-79.2392,17.07,88,40,4.12,PE,1728610822
535,juanjui,-7.1779,-76.7314,22.43,98,100,0.78,PE,1728610823
536,kidal,18.4411,1.4078,30.77,17,57,1.59,ML,1728610824
537,caleta olivia,-46.4393,-67.5281,11.48,40,72,6.39,AR,1728610825
538,santa terezinha,-29.9002,-50.0904,19.29,94,100,11.89,BR,1728610826
539,sake,-1.5736,29.045,16.24,93,83,0.6,CD,1728610828
540,dzhalagash,45.0833,64.6667,11.81,77,97,5.62,KZ,1728610829
541,maragogi,-9.0122,-35.2225,24.7,74,100,4.33,BR,1728610830
542,antonio enes,-16.2325,39.9086,21.98,85,0,2.99,MZ,1728610831
543,bayanhongor,46.7167,100.1167,4.04,41,6,0.23,MN,1728610832
544,remire-montjoly,4.9167,-52.2667,26.02,94,75,1.03,GF,1728610833
545,ciudad lazaro cardenas,17.9583,-102.2,26.27,84,53,1.2,MX,1728610834
546,ormara,25.2088,64.6357,27.55,74,0,2.93,PK,1728610835
547,oriximina,-1.7656,-55.8661,28.24,52,30,1.61,BR,1728610836
548,gaiman,-43.2897,-65.4929,11.11,58,100,3.17,AR,1728610837
549,okhotsk,59.3833,143.3,4.76,89,100,7.64,RU,1728610839
550,srivardhan,18.0333,73.0167,26.07,87,100,1.91,IN,1728610840
551,galliano,29.4422,-90.2992,19.0,88,0,0.0,US,1728610841
552,astrakhan,46.3497,48.0408,7.93,87,0,1.0,RU,1728610842
553,tonota,-21.4833,27.4833,17.93,42,0,2.96,BW,1728610843
554,altai,46.3722,96.2583,6.61,34,0,0.9,MN,1728610844
555,bacsalmas,46.1265,19.3326,13.7,88,99,3.9,HU,1728610845
556,armacao de buzios,-22.7469,-41.8817,21.2,92,100,9.62,BR,1728610846
557,biloela,-24.4167,150.5,25.58,47,95,5.88,AU,1728610847
558,kundiawa,-6.0167,144.9667,28.39,37,45,1.59,PG,1728610849
559,brandon,27.9378,-82.2859,23.39,86,26,3.13,US,1728610850
560,rivera,-30.9053,-55.5508,19.06,99,100,2.15,UY,1728610851
561,menongue,-14.6585,17.691,16.35,23,14,2.61,AO,1728610852
562,ushtobe,45.2514,77.9838,17.45,36,68,0.96,KZ,1728610853
563,greenville,35.6127,-77.3663,13.4,84,0,0.0,US,1728610854
564,kyshtovka,56.555,76.6271,-1.52,58,100,6.44,RU,1728610855
565,lianzhou,24.7811,112.3825,25.64,52,6,1.2,CN,1728610856
566,alegrete,-29.7831,-55.7919,18.31,98,100,2.29,BR,1728610857
567,koppa,13.5304,75.3633,20.24,95,100,0.51,IN,1728610858
568,le vauclin,14.5452,-60.8388,27.03,83,40,1.03,MQ,1728610860
569,ixtapa,20.7,-105.2,28.57,84,75,2.57,MX,1728610861
570,piranhas,-16.4269,-51.8222,24.4,73,35,1.79,BR,1728610862
571,kerikeri,-35.2268,173.9474,15.51,82,46,2.24,NZ,1728610863
572,kondopoga,62.2057,34.2614,7.45,91,100,5.48,RU,1728610864
573,caleta de carquin,-11.0925,-77.6267,17.65,87,60,4.24,PE,1728610865
574,camiri,-20.05,-63.5167,16.53,88,100,1.16,BO,1728610866
575,kanniyakumari,8.0833,77.5667,25.98,77,93,6.78,IN,1728610868
576,newman,37.3138,-121.0208,25.58,51,68,1.18,US,1728610869
577,zhob,31.3411,69.4481,18.66,22,0,1.44,PK,1728610870
578,cuito,-12.3833,16.9333,14.01,48,21,1.53,AO,1728610871
579,waddan,29.1614,16.139,29.21,23,4,0.98,LY,1728610872
